[
  {
    "id": 1,
    "nome": "Fazenda São Esperança",
    "bioma": "Cerrado",
    "municipio_uf": "Uberaba-MG",
    "tamanho_ha": 178.11,
    "valor_base": 6438,
    "valor_total_dinamico": 3544389,
    "potencial_base_ha": 12.5,
    "produtividade_real_ha": 7.5,
    "dono": "Lurdinha",
    "pastagem_id": "PASTO_DEGRADADO",
    "latitude": -19.7472,
    "longitude": -47.9381
  },
  {
    "id": 2,
    "nome": "Fazenda Monte Dourado",
    "bioma": "Amazônia",
    "municipio_uf": "Santarém-PA",
    "tamanho_ha": 318.88,
    "valor_base": 2000,
    "valor_total_dinamico": 9311296,
    "potencial_base_ha": 22.0,
    "produtividade_real_ha": 13.2,
    "dono": "Jorge Tadeu",
    "pastagem_id": "PASTO_DEGRADADO",
    "latitude": -2.43849,
    "longitude": -54.6996,
    "pastos": []
  },
  {
    "id": 3,
    "nome": "Estância do Pampa",
    "bioma": "Pampa",
    "municipio_uf": "Bagé-RS",
    "tamanho_ha": 450.25,
    "valor_base": 8165,
    "valor_total_dinamico": 12607000,
    "potencial_base_ha": 15.0,
    "produtividade_real_ha": 9.0,
    "dono": "Clóvis Moura",
    "pastagem_id": "PASTO_DEGRADADO",
    "latitude": -31.3297,
    "longitude": -54.0999
  },
  {
    "id": 4,
    "nome": "Rancho Fundo",
    "bioma": "Caatinga",
    "municipio_uf": "Juazeiro-BA",
    "tamanho_ha": 520.0,
    "valor_base": 1000,
    "valor_total_dinamico": 4680000,
    "potencial_base_ha": 7.0,
    "produtividade_real_ha": 4.2,
    "dono": "Zeca Diabo",
    "pastagem_id": "PASTO_DEGRADADO",
    "latitude": -9.41622,
    "longitude": -40.5033
  },
  {
    "id": 5,
    "nome": "Fazenda Águas Claras",
    "bioma": "Pantanal",
    "municipio_uf": "Corumbá-MS",
    "tamanho_ha": 1200.0,
    "valor_base": 2598,
    "valor_total_dinamico": 18000000,
    "potencial_base_ha": 10.0,
    "produtividade_real_ha": 6.0,
    "dono": "Zé do Burro",
    "pastagem_id": "PASTO_DEGRADADO",
    "latitude": -19.0077,
    "longitude": -57.651
  },
  {
    "id": 6,
    "nome": "Sítio Bela Vista",
    "bioma": "Mata Atlântica",
    "municipio_uf": "Itabuna-BA",
    "tamanho_ha": 85.5,
    "valor_base": 15000,
    "valor_total_dinamico": 2992500,
    "potencial_base_ha": 18.0,
    "produtividade_real_ha": 10.8,
    "dono": "José Leôncio",
    "pastagem_id": "PASTO_DEGRADADO",
    "latitude": -14.7876,
    "longitude": -39.2781
  },
  {
    "id": 7,
    "nome": "Fazenda Sol Nascente",
    "bioma": "Cerrado",
    "municipio_uf": "Goiânia-GO",
    "tamanho_ha": 250.75,
    "valor_base": 55322,
    "valor_total_dinamico": 6018000,
    "potencial_base_ha": 13.0,
    "produtividade_real_ha": 7.8,
    "dono": "Maria do Cerrado",
    "pastagem_id": "PASTO_DEGRADADO",
    "latitude": -16.6864,
    "longitude": -49.2643
  },
  {
    "id": 8,
    "nome": "Retiro das Antas",
    "bioma": "Pantanal",
    "municipio_uf": "Poconé-MT",
    "tamanho_ha": 850.0,
    "valor_base": 1976,
    "valor_total_dinamico": 13600000,
    "potencial_base_ha": 11.0,
    "produtividade_real_ha": 6.6,
    "dono": "NPC_8",
    "pastagem_id": "PASTO_DEGRADADO",
    "latitude": -16.266,
    "longitude": -56.6261
  },
  {
    "id": 9,
    "nome": "Fazenda da Serra",
    "bioma": "Mata Atlântica",
    "municipio_uf": "Teresópolis-RJ",
    "tamanho_ha": 50.0,
    "valor_base": 2710,
    "valor_total_dinamico": 2250000,
    "potencial_base_ha": 16.0,
    "produtividade_real_ha": 9.6,
    "dono": "Lucia do Brejo",
    "pastagem_id": "PASTO_DEGRADADO",
    "latitude": -22.4165,
    "longitude": -42.9752
  },
  {
    "id": 10,
    "nome": "Canto do Sabiá",
    "bioma": "Caatinga",
    "municipio_uf": "Petrolina-PE",
    "tamanho_ha": 300.0,
    "valor_base": 3000,
    "valor_total_dinamico": 3300000,
    "potencial_base_ha": 8.0,
    "produtividade_real_ha": 4.8,
    "dono": "NPC_4",
    "pastagem_id": "PASTO_DEGRADADO",
    "latitude": -9.38866,
    "longitude": -40.5027
  },
  {
    "id": 11,
    "nome": "Fazenda Rio Verde",
    "bioma": "Amazônia",
    "municipio_uf": "Manaus-AM",
    "tamanho_ha": 400.0,
    "valor_base": 2000,
    "valor_total_dinamico": 6800000,
    "potencial_base_ha": 20.0,
    "produtividade_real_ha": 12.0,
    "dono": "Lucas da Serra",
    "pastagem_id": "PASTO_DEGRADADO",
    "latitude": -3.11866,
    "longitude": -60.0212
  },
  {
    "id": 12,
    "nome": "Horizonte Azul",
    "bioma": "Pampa",
    "municipio_uf": "Uruguaiana-RS",
    "tamanho_ha": 600.0,
    "valor_base": 6653,
    "valor_total_dinamico": 18000000,
    "potencial_base_ha": 14.0,
    "produtividade_real_ha": 8.4,
    "dono": "José do Sertão",
    "pastagem_id": "PASTO_DEGRADADO",
    "latitude": -29.7614,
    "longitude": -57.0853
  },
  {
    "id": 13,
    "nome": "Fazenda Boa Sorte",
    "bioma": "Cerrado",
    "municipio_uf": "Campo Grande-MS",
    "tamanho_ha": 320.5,
    "valor_base": 10626,
    "valor_total_dinamico": 8333000,
    "potencial_base_ha": 14.0,
    "produtividade_real_ha": 8.4,
    "dono": "NPC_1",
    "pastagem_id": "PASTO_DEGRADADO",
    "latitude": -20.4486,
    "longitude": -54.6295
  },
  {
    "id": 14,
    "nome": "Recanto do Tuiuiú",
    "bioma": "Pantanal",
    "municipio_uf": "Aquidauana-MS",
    "tamanho_ha": 1500.0,
    "valor_base": 3987,
    "valor_total_dinamico": 21000000,
    "potencial_base_ha": 9.0,
    "produtividade_real_ha": 5.4,
    "dono": null,
    "pastagem_id": "PASTO_DEGRADADO",
    "latitude": -20.4666,
    "longitude": -55.7868
  },
  {
    "id": 15,
    "nome": "Sítio das Flores",
    "bioma": "Mata Atlântica",
    "municipio_uf": "Guarapari-ES",
    "tamanho_ha": 30.0,
    "valor_base": 10000,
    "valor_total_dinamico": 1500000,
    "potencial_base_ha": 19.0,
    "produtividade_real_ha": 11.4,
    "dono": "NPC_7",
    "pastagem_id": "PASTO_DEGRADADO",
    "latitude": -20.6772,
    "longitude": -40.5093
  },
  {
    "id": 16,
    "nome": "Fazenda Ventania",
    "bioma": "Pampa",
    "municipio_uf": "Santana do Livramento-RS",
    "tamanho_ha": 750.0,
    "valor_base": 9423,
    "valor_total_dinamico": 21750000,
    "potencial_base_ha": 13.5,
    "produtividade_real_ha": 8.1,
    "dono": null,
    "pastagem_id": "PASTO_DEGRADADO",
    "latitude": -30.8833,
    "longitude": -55.5333
  },
  {
    "id": 17,
    "nome": "Serra do Mar",
    "bioma": "Mata Atlântica",
    "municipio_uf": "Ubatuba-SP",
    "tamanho_ha": 65.0,
    "valor_base": 20144,
    "valor_total_dinamico": 2730000,
    "potencial_base_ha": 17.0,
    "produtividade_real_ha": 15.3,
    "dono": "NPC_9",
    "pastagem_id": "PASTO_BOM",
    "latitude": -23.4332,
    "longitude": -45.0834
  },
  {
    "id": 18,
    "nome": "Fazenda Chapadão",
    "bioma": "Cerrado",
    "municipio_uf": "Brasília-DF",
    "tamanho_ha": 150.0,
    "valor_base": 55000,
    "valor_total_dinamico": 4050000,
    "potencial_base_ha": 13.2,
    "produtividade_real_ha": 7.92,
    "dono": "Isabela do Vale",
    "pastagem_id": "PASTO_DEGRADADO",
    "latitude": -15.7795,
    "longitude": -47.9297
  },
  {
    "id": 19,
    "nome": "Vale da Lua",
    "bioma": "Caatinga",
    "municipio_uf": "Canudos-BA",
    "tamanho_ha": 600.0,
    "valor_base": 1000,
    "valor_total_dinamico": 4800000,
    "potencial_base_ha": 6.0,
    "produtividade_real_ha": 3.6,
    "dono": "NPC_3",
    "pastagem_id": "PASTO_DEGRADADO",
    "latitude": -9.90014,
    "longitude": -39.1471
  },
  {
    "id": 20,
    "nome": "Fazenda da Lagoa",
    "bioma": "Pantanal",
    "municipio_uf": "Miranda-MS",
    "tamanho_ha": 950.0,
    "valor_base": 3370,
    "valor_total_dinamico": 14725000,
    "potencial_base_ha": 10.5,
    "produtividade_real_ha": 6.3,
    "dono": null,
    "pastagem_id": "PASTO_DEGRADADO",
    "latitude": -20.2355,
    "longitude": -56.3746
  },
  {
    "id": 21,
    "nome": "Paraíso Verde",
    "bioma": "Amazônia",
    "municipio_uf": "Rio Branco-AC",
    "tamanho_ha": 280.0,
    "valor_base": 9900,
    "valor_total_dinamico": 5320000,
    "potencial_base_ha": 21.0,
    "produtividade_real_ha": 12.6,
    "dono": "NPC_6",
    "pastagem_id": "PASTO_DEGRADADO",
    "latitude": -9.97499,
    "longitude": -67.8243
  },
  {
    "id": 22,
    "nome": "Coxilha Rica",
    "bioma": "Pampa",
    "municipio_uf": "Lages-SC",
    "tamanho_ha": 400.0,
    "valor_base": 13000,
    "valor_total_dinamico": 12800000,
    "potencial_base_ha": 14.8,
    "produtividade_real_ha": 8.88,
    "dono": "Fernanda do Pantanal",
    "pastagem_id": "PASTO_DEGRADADO",
    "latitude": -27.815,
    "longitude": -50.3259
  },
  {
    "id": 23,
    "nome": "Fazenda Água Doce",
    "bioma": "Cerrado",
    "municipio_uf": "Palmas-TO",
    "tamanho_ha": 450.0,
    "valor_base": 6363,
    "valor_total_dinamico": 10350000,
    "potencial_base_ha": 12.0,
    "produtividade_real_ha": 7.2,
    "dono": "Diego do Oeste",
    "pastagem_id": "PASTO_DEGRADADO",
    "latitude": -10.24,
    "longitude": -48.3558
  },
  {
    "id": 24,
    "nome": "Recanto dos Pássaros",
    "bioma": "Mata Atlântica",
    "municipio_uf": "Petrópolis-RJ",
    "tamanho_ha": 45.0,
    "valor_base": 2710,
    "valor_total_dinamico": 2160000,
    "potencial_base_ha": 16.5,
    "produtividade_real_ha": 9.9,
    "dono": "jogador",
    "pastagem_id": "PASTO_DEGRADADO",
    "latitude": -22.52,
    "longitude": -43.1926
  },
  {
    "id": 25,
    "nome": "Estância Modelo",
    "bioma": "Cerrado",
    "municipio_uf": "Barreiras-BA",
    "tamanho_ha": 1000.0,
    "valor_base": 1929,
    "valor_total_dinamico": 22000000,
    "potencial_base_ha": 11.0,
    "produtividade_real_ha": 6.6,
    "dono": "NPC_12",
    "pastagem_id": "PASTO_DEGRADADO",
    "latitude": -12.1439,
    "longitude": -44.9968
  },
  {
    "id": 26,
    "nome": "Fazenda do Araguaia",
    "bioma": "Amazônia",
    "municipio_uf": "Marabá-PA",
    "tamanho_ha": 600.0,
    "valor_base": 2500,
    "valor_total_dinamico": 9600000,
    "potencial_base_ha": 19.5,
    "produtividade_real_ha": 17.55,
    "dono": "Sofia do Oeste",
    "pastagem_id": "PASTO_BOM",
    "latitude": -5.38075,
    "longitude": -49.1327
  },
  {
    "id": 27,
    "nome": "Campos do Sul",
    "bioma": "Pampa",
    "municipio_uf": "Pelotas-RS",
    "tamanho_ha": 550.0,
    "valor_base": 7330,
    "valor_total_dinamico": 17050000,
    "potencial_base_ha": 14.2,
    "produtividade_real_ha": 8.52,
    "dono": "NPC_11",
    "pastagem_id": "PASTO_DEGRADADO",
    "latitude": -31.7649,
    "longitude": -52.3371
  },
  {
    "id": 28,
    "nome": "Refúgio do Sertão",
    "bioma": "Caatinga",
    "municipio_uf": "Senhor do Bonfim-BA",
    "tamanho_ha": 480.0,
    "valor_base": 2000,
    "valor_total_dinamico": 4800000,
    "potencial_base_ha": 7.5,
    "produtividade_real_ha": 4.5,
    "dono": "Mariana do Leste",
    "pastagem_id": "PASTO_DEGRADADO",
    "latitude": -10.4594,
    "longitude": -40.1865
  },
  {
    "id": 29,
    "nome": "Baía das Garças",
    "bioma": "Pantanal",
    "municipio_uf": "Cáceres-MT",
    "tamanho_ha": 1100.0,
    "valor_base": 2281,
    "valor_total_dinamico": 15950000,
    "potencial_base_ha": 9.8,
    "produtividade_real_ha": 5.88,
    "dono": null,
    "pastagem_id": "PASTO_DEGRADADO",
    "latitude": -16.0764,
    "longitude": -57.6818
  },
  {
    "id": 30,
    "nome": "Fazenda Imperial",
    "bioma": "Mata Atlântica",
    "municipio_uf": "Ouro Preto-MG",
    "tamanho_ha": 120.0,
    "valor_base": 18056,
    "valor_total_dinamico": 4800000,
    "potencial_base_ha": 17.8,
    "produtividade_real_ha": 10.68,
    "dono": "NPC_13",
    "pastagem_id": "PASTO_DEGRADADO",
    "latitude": -20.3796,
    "longitude": -43.512
  },
  {
    "id": 31,
    "nome": "Planalto Central",
    "bioma": "Cerrado",
    "municipio_uf": "Jataí-GO",
    "tamanho_ha": 700.0,
    "valor_base": 8167,
    "valor_total_dinamico": 17500000,
    "potencial_base_ha": 13.8,
    "produtividade_real_ha": 8.28,
    "dono": "Thiago do Leste",
    "pastagem_id": "PASTO_DEGRADADO",
    "latitude": -17.8784,
    "longitude": -51.7204
  },
  {
    "id": 32,
    "nome": "Verde Mato",
    "bioma": "Amazônia",
    "municipio_uf": "Porto Velho-RO",
    "tamanho_ha": 350.0,
    "valor_base": 6574,
    "valor_total_dinamico": 6475000,
    "potencial_base_ha": 21.5,
    "produtividade_real_ha": 12.9,
    "dono": "Carlos do Vale",
    "pastagem_id": "PASTO_DEGRADADO",
    "latitude": -8.76077,
    "longitude": -63.8999
  },
  {
    "id": 33,
    "nome": "Estância da Fronteira",
    "bioma": "Pampa",
    "municipio_uf": "Dom Pedrito-RS",
    "tamanho_ha": 800.0,
    "valor_base": 4984,
    "valor_total_dinamico": 22800000,
    "potencial_base_ha": 13.0,
    "produtividade_real_ha": 7.8,
    "dono": "NPC_14",
    "pastagem_id": "PASTO_DEGRADADO",
    "latitude": -30.9756,
    "longitude": -54.6694
  },
  {
    "id": 34,
    "nome": "Caminho das Pedras",
    "bioma": "Caatinga",
    "municipio_uf": "Jacobina-BA",
    "tamanho_ha": 550.0,
    "valor_base": 2500,
    "valor_total_dinamico": 5225000,
    "potencial_base_ha": 7.2,
    "produtividade_real_ha": 4.32,
    "dono": "Rafael do Cerrado",
    "pastagem_id": "PASTO_DEGRADADO",
    "latitude": -11.1812,
    "longitude": -40.5117
  },
  {
    "id": 35,
    "nome": "Morada do Jacaré",
    "bioma": "Pantanal",
    "municipio_uf": "Coxim-MS",
    "tamanho_ha": 1300.0,
    "valor_base": 4730,
    "valor_total_dinamico": 17550000,
    "potencial_base_ha": 8.5,
    "produtividade_real_ha": 5.1,
    "dono": "NPC_15",
    "pastagem_id": "PASTO_DEGRADADO",
    "latitude": -18.5013,
    "longitude": -54.751
  },
  {
    "id": 36,
    "nome": "Vale das Esmeraldas",
    "bioma": "Mata Atlântica",
    "municipio_uf": "Governador Valadares-MG",
    "tamanho_ha": 200.0,
    "valor_base": 3000,
    "valor_total_dinamico": 7600000,
    "potencial_base_ha": 18.2,
    "produtividade_real_ha": 10.92,
    "dono": "Roberto do Sertão",
    "pastagem_id": "PASTO_DEGRADADO",
    "latitude": -18.8545,
    "longitude": -41.9555
  },
  {
    "id": 37,
    "nome": "Fazenda do Triângulo",
    "bioma": "Cerrado",
    "municipio_uf": "Ituiutaba-MG",
    "tamanho_ha": 280.0,
    "valor_base": 10564,
    "valor_total_dinamico": 7420000,
    "potencial_base_ha": 14.5,
    "produtividade_real_ha": 8.7,
    "dono": "João da Mata",
    "pastagem_id": "PASTO_DEGRADADO",
    "latitude": -18.9772,
    "longitude": -49.4639
  },
  {
    "id": 38,
    "nome": "Selva Dourada",
    "bioma": "Amazônia",
    "municipio_uf": "Boa Vista-RR",
    "tamanho_ha": 500.0,
    "valor_base": 3500,
    "valor_total_dinamico": 8750000,
    "potencial_base_ha": 20.5,
    "produtividade_real_ha": 12.3,
    "dono": "NPC_16",
    "pastagem_id": "PASTO_DEGRADADO",
    "latitude": 2.82384,
    "longitude": -60.6753
  },
  {
    "id": 39,
    "nome": "Pampas Gaúchos",
    "bioma": "Pampa",
    "municipio_uf": "Alegrete-RS",
    "tamanho_ha": 900.0,
    "valor_base": 6075,
    "valor_total_dinamico": 26550000,
    "potencial_base_ha": 13.8,
    "produtividade_real_ha": 8.28,
    "dono": null,
    "pastagem_id": "PASTO_DEGRADADO",
    "latitude": -29.7902,
    "longitude": -55.7949
  },
  {
    "id": 40,
    "nome": "Oasis do Sertão",
    "bioma": "Caatinga",
    "municipio_uf": "Irecê-BA",
    "tamanho_ha": 400.0,
    "valor_base": 1500,
    "valor_total_dinamico": 4800000,
    "potencial_base_ha": 8.2,
    "produtividade_real_ha": 4.92,
    "dono": "NPC_17",
    "pastagem_id": "PASTO_DEGRADADO",
    "latitude": -11.3033,
    "longitude": -41.8535
  },
  {
    "id": 41,
    "nome": "Ninho das Águias",
    "bioma": "Mata Atlântica",
    "municipio_uf": "Nova Friburgo-RJ",
    "tamanho_ha": 75.0,
    "valor_base": 3285,
    "valor_total_dinamico": 3450000,
    "potencial_base_ha": 17.2,
    "produtividade_real_ha": 10.32,
    "dono": "Gustavo do Norte",
    "pastagem_id": "PASTO_DEGRADADO",
    "latitude": -22.2932,
    "longitude": -42.5377
  },
  {
    "id": 42,
    "nome": "Fazenda Santa Fé",
    "bioma": "Cerrado",
    "municipio_uf": "Rio Verde-GO",
    "tamanho_ha": 550.0,
    "valor_base": 6258,
    "valor_total_dinamico": 15125000,
    "potencial_base_ha": 14.8,
    "produtividade_real_ha": 8.88,
    "dono": "Patrícia do Vale",
    "pastagem_id": "PASTO_DEGRADADO",
    "latitude": -17.7923,
    "longitude": -50.9192
  },
  {
    "id": 43,
    "nome": "Coração da Amazônia",
    "bioma": "Amazônia",
    "municipio_uf": "Itaituba-PA",
    "tamanho_ha": 700.0,
    "valor_base": 1500,
    "valor_total_dinamico": 10500000,
    "potencial_base_ha": 18.0,
    "produtividade_real_ha": 10.8,
    "dono": "NPC_18",
    "pastagem_id": "PASTO_DEGRADADO",
    "latitude": -4.2667,
    "longitude": -55.9926
  },
  {
    "id": 44,
    "nome": "Campos de Cima da Serra",
    "bioma": "Pampa",
    "municipio_uf": "Vacaria-RS",
    "tamanho_ha": 350.0,
    "valor_base": 11682,
    "valor_total_dinamico": 11550000,
    "potencial_base_ha": 15.2,
    "produtividade_real_ha": 9.12,
    "dono": "Ana do Brejo",
    "pastagem_id": "PASTO_DEGRADADO",
    "latitude": -28.5079,
    "longitude": -50.9418
  },
  {
    "id": 45,
    "nome": "Terra do Mandacaru",
    "bioma": "Caatinga",
    "municipio_uf": "Serrinha-BA",
    "tamanho_ha": 350.0,
    "valor_base": 3000,
    "valor_total_dinamico": 4025000,
    "potencial_base_ha": 7.8,
    "produtividade_real_ha": 4.68,
    "dono": "Pedro do Norte",
    "pastagem_id": "PASTO_DEGRADADO",
    "latitude": -11.6584,
    "longitude": -39.01
  },
  {
    "id": 46,
    "nome": "Paraíso das Araras",
    "bioma": "Pantanal",
    "municipio_uf": "Bonito-MS",
    "tamanho_ha": 1050.0,
    "valor_base": 6850,
    "valor_total_dinamico": 17325000,
    "potencial_base_ha": 11.2,
    "produtividade_real_ha": 6.72,
    "dono": "NPC_19",
    "pastagem_id": "PASTO_DEGRADADO",
    "latitude": -21.1261,
    "longitude": -56.4836
  },
  {
    "id": 47,
    "nome": "Fazenda Ouro Verde",
    "bioma": "Mata Atlântica",
    "municipio_uf": "Viçosa-MG",
    "tamanho_ha": 95.0,
    "valor_base": 18056,
    "valor_total_dinamico": 3895000,
    "potencial_base_ha": 18.5,
    "produtividade_real_ha": 11.1,
    "dono": "Camila do Sul",
    "pastagem_id": "PASTO_DEGRADADO",
    "latitude": -20.7559,
    "longitude": -42.8742
  },
  {
    "id": 48,
    "nome": "Planalto do Parecis",
    "bioma": "Cerrado",
    "municipio_uf": "Sapezal-MT",
    "tamanho_ha": 1200.0,
    "valor_base": 2634,
    "valor_total_dinamico": 25200000,
    "potencial_base_ha": 10.0,
    "produtividade_real_ha": 6.0,
    "dono": "NPC_20",
    "pastagem_id": "PASTO_DEGRADADO",
    "latitude": -12.9892,
    "longitude": -58.7645
  },
  {
    "id": 49,
    "nome": "Fronteira Oeste",
    "bioma": "Pampa",
    "municipio_uf": "São Borja-RS",
    "tamanho_ha": 700.0,
    "valor_base": 9100,
    "valor_total_dinamico": 21350000,
    "potencial_base_ha": 13.6,
    "produtividade_real_ha": 8.16,
    "dono": null,
    "pastagem_id": "PASTO_DEGRADADO",
    "latitude": -28.6578,
    "longitude": -56.0036
  },
  {
    "id": 50,
    "nome": "Coração do Brasil",
    "bioma": "Cerrado",
    "municipio_uf": "Niquelândia-GO",
    "tamanho_ha": 480.0,
    "valor_base": 4452,
    "valor_total_dinamico": 11760000,
    "potencial_base_ha": 13.5,
    "produtividade_real_ha": 8.1,
    "dono": "Antônio do Mato",
    "pastagem_id": "PASTO_DEGRADADO",
    "latitude": -14.4662,
    "longitude": -48.4599
  }
]